     2.12           OBSERVATION DATA    M (MIXED)           RINEX VERSION / TYPE
JPS2RIN v.2.0.99    JAVAD GNSS          20150610 220044 UTC PGM / RUN BY / DATE 
filename                                                    MARKER NAME         
                                                            MARKER NUMBER       
-Unknown-           -Unknown-                               OBSERVER / AGENCY   
00L8XRYFXCC213FJTMVBTR_G3T ALPHA        3.4.14 Jan,29,2014  REC # / TYPE / VERS 
-Unknown-           -Unknown-                               ANT # / TYPE        
        0.0000        0.0000        0.0000                  APPROX POSITION XYZ 
        0.0000        0.0000        0.0000                  ANTENNA: DELTA H/E/N
     1     1                                                WAVELENGTH FACT L1/2
    38    CA    LA    DA    SA    P1    L1    D1    S1    CB# / TYPES OF OBSERV 
          LB    DB    SB    CC    LC    DC    SC    P2    L2# / TYPES OF OBSERV 
          D2    S2    C5    L5    D5    S5    CD    LD    DD# / TYPES OF OBSERV 
          SD    C1    C7    L7    D7    S7    C8    L8    D8# / TYPES OF OBSERV 
          S8    C2                                          # / TYPES OF OBSERV 
     1.000                                                  INTERVAL            
  2014     8    29    20     3   50.0000000     GPS         TIME OF FIRST OBS   
  2014     8    29    20     3   50.0000000     GPS         TIME OF LAST OBS    
                                                            END OF HEADER       
 14  8 29 20  3 50.0000000  0 22G23G11R12G25R19R17G13R 2R18G 6G 9G14
                                G12G20G 4G32G17R11G 1G31R 3R 1
  22162967.206   116467215.748        2636.165          49.750                  
 116467215.748        2636.165          49.750                                  
                                                                                
                  22162965.821    90753713.197        2054.146          38.250  
                                                                                
                                                  22162967.206                  
                                                                                
                                                
  24338832.020   127901474.541       -3912.342          42.500                  
 127901474.541       -3912.342          42.500                                  
                                                                                
                  24338836.421    99663505.569       -3048.628          21.000  
                                                                                
                                                  24338832.020                  
                                                                                
                                                
                                                                  21040940.632  
 112396980.465                          44.500                                  
                                                                                
                  21040950.192    87419883.694        2299.116          43.750  
                                                                                
                                                                                
                                                                                
                                                
  24237297.495   127367886.929        -111.441          39.250                  
 127367886.929        -111.441          39.250                                  
                                                                                
                  24237301.530    99247690.442         -86.767          23.000  
  24237303.590    95112370.591         -83.133          35.500                  
                                                  24237297.495                  
                                                                                
                                                
                                                                  22549228.017  
 120623184.567                          45.250                                  
                                                                                
                  22549234.499    93818036.461        1953.474          40.500  
                                                                                
                                                                                
                                                                                
                                                
                                                                  23168033.713  
 123976838.201                          41.750                                  
                                                                                
                  23168042.281    96426426.741       -3494.743          38.000  
                                                                                
                                                                                
                                                                                
                                                
  24243821.639   127402383.387        3550.760          40.750                  
 127402383.387        3550.760          40.750                                  
                                                                                
                  24243823.698    99274418.874        2766.917          20.750  
                                                                                
                                                  24243821.639                  
                                                                                
                                                
                                                                  19302044.473  
 102999456.041                          54.250                                  
                                                                                
                  19302051.467    80110715.850        -670.921          51.250  
                                                                                
                                                                                
                                                                                
                                                
                                                                  21158468.308  
 112945368.353                          49.750                                  
                                                                                
                  21158476.310    87846404.024       -1469.662          45.500  
                                                                                
                                                                                
                                                                                
                                                
  24464366.290   128561122.870        3256.831          40.250                  
 128561122.870        3256.831          40.250                                  
                                                                                
                  24464368.595   100177503.329        2537.852          24.250  
  24464372.085    96003433.701        2432.118          37.000                  
                                                  24464366.290                  
                                                                                
                                                
  20396825.318   107186154.284         662.441          55.250                  
 107186154.284         662.441          55.250                                  
                                                                                
                  20396827.212    83521688.043         516.214          48.500  
                                                                                
                                                  20396825.318                  
                                                                                
                                                
  25107504.709   131940930.293       -3567.147          35.500                  
 131940930.293       -3567.147          35.500                                  
                                                                                
                  25107503.132   102811134.579       -2779.616          12.750  
                                                                                
                                                  25107504.709                  
                                                                                
                                                
  24998591.995   131368475.041       -1860.177          34.250                  
 131368475.041       -1860.177          34.250                                  
                                                                                
                  24998594.507   102365043.494       -1449.334           6.500  
                                                                                
                                                  24998591.995                  
                                                                                
                                                
  20144371.672   105859503.462         762.949          52.500                  
 105859503.462         762.949          52.500                                  
                                                                                
                  20144371.183    82487934.886         594.503          46.000  
                                                                                
                                                  20144371.672                  
                                                                                
                                                
  20901645.232   109838935.796        -683.409          52.750                  
 109838935.796        -683.409          52.750                                  
                                                                                
                  20901646.093    85588789.816        -532.520          42.750  
                                                                                
                                                  20901645.232                  
                                                                                
                                                
  21147089.901   111128792.205       -2083.609          53.000                  
 111128792.205       -2083.609          53.000                                  
                                                                                
                  21147090.429    86593872.597       -1623.607          43.250  
                                                                                
                                                  21147089.901                  
                                                                                
                                                
  23786901.694   125001024.642       -1807.171          43.000                  
 125001024.642       -1807.171          43.000                                  
                                                                                
                  23786903.747    97403409.193       -1408.242          27.750  
                                                                                
                                                  23786901.694                  
                                                                                
                                                
                                                                  20896306.618  
 111663583.954                          47.750                                  
                                                                                
                  20896314.305    86849474.448       -1132.463          41.500  
                                                                                
                                                                                
                                                                                
                                                
  21781793.273   114464173.651       -2854.936          49.500                  
 114464173.651       -2854.936          49.500                                  
                                                                                
                  21781797.710    89192882.215       -2224.655          39.250  
  21781796.619    85476511.697       -2131.954          45.000                  
                                                  21781793.273                  
                                                                                
                                                
  21427392.534   112601773.493        -566.268          52.250                  
 112601773.493        -566.268          52.250                                  
                                                                                
                  21427392.255    87741656.781        -441.245          42.500  
                                                                                
                                                  21427392.534                  
                                                                                
                                                
                                                                  20732276.877  
 110981568.532                          48.250                                  
                                                                                
                  20732283.371    86319015.910        2053.940          47.250  
                                                                                
                                                                                
                                                                                
                                                
                                                                  22422717.531  
 119862361.821                          44.250                                  
                                                                                
                  22422726.689    93226301.912       -2810.999          36.500  
                                                                                
                                                                                
                                                                                
                                                
