     2.12           OBSERVATION DATA    M (MIXED)           RINEX VERSION / TYPE
JPS2RIN v.2.0.99    JAVAD GNSS          20150609 091731 UTC PGM / RUN BY / DATE
-Unknown-           -Unknown-                               OBSERVER / AGENCY
ifz-data-0                                                  MARKER NAME
00L8XRYFXCC213FJTMVBJAVAD TR_G3T ALPHA  3.4.14 Jan,29,2014  REC # / TYPE / VERS
  2850405.7127  2193547.7167  5249830.2977                  APPROX POSITION XYZ
-Unknown-           -Unknown-                               ANT # / TYPE
        0.0000        0.0000        0.0000                  ANTENNA: DELTA H/E/N
     1     1                                                WAVELENGTH FACT L1/2
    23    P1    L1    S1    P2    L2    D2    S2    C5    L5# / TYPES OF OBSERV
          D5    S5    CA    LA    DA    SA    CC    LC    DC# / TYPES OF OBSERV
          SC    CD    LD    DD    SD                        # / TYPES OF OBSERV
     1.000                                                  INTERVAL
  2014     8    29    20     2   22.0000000     GPS         TIME OF FIRST OBS
  2014     8    29    20     3   51.0000000     GPS         TIME OF LAST OBS
    16                                                      LEAP SECONDS
G LA   0.00000  14 G01 G04 G06 G09 G11 G12 G13 G14 G17 G20  SYS / PHASE SHIFT
                   G23 G25 G31 G32                          SYS / PHASE SHIFT
G L1  -0.25000  14 G01 G04 G06 G09 G11 G12 G13 G14 G17 G20  SYS / PHASE SHIFT
                   G23 G25 G31 G32                          SYS / PHASE SHIFT
G LC   0.25000  06 G01 G06 G12 G17 G25 G31                  SYS / PHASE SHIFT
G L2   0.00000  14 G01 G04 G06 G09 G11 G12 G13 G14 G17 G20  SYS / PHASE SHIFT
                   G23 G25 G31 G32                          SYS / PHASE SHIFT
G L5   0.00000  03 G01 G06 G25                              SYS / PHASE SHIFT
R LA   0.00000  08 R01 R02 R03 R11 R12 R17 R18 R19          SYS / PHASE SHIFT
R L1  -0.25000  08 R01 R02 R03 R11 R12 R17 R18 R19          SYS / PHASE SHIFT
R LD   0.25000  08 R01 R02 R03 R11 R12 R17 R18 R19          SYS / PHASE SHIFT
R L2   0.00000  08 R01 R02 R03 R11 R12 R17 R18 R19          SYS / PHASE SHIFT
    22                                                      # OF SATELLITES
   G 1    90    90    90    90    90    90    90    90    90PRN / # OF OBS
          90    90    90    90    90    90    90    90    90PRN / # OF OBS
          90     0     0     0     0                        PRN / # OF OBS
   G 4    90    90    90    90    90    90    90     0     0PRN / # OF OBS
           0     0    90    90    90    90     0     0     0PRN / # OF OBS
           0     0     0     0     0                        PRN / # OF OBS
   G 6    90    90    90    90    90    90    90    90    90PRN / # OF OBS
          90    90    90    90    90    90    90    90    90PRN / # OF OBS
          90     0     0     0     0                        PRN / # OF OBS
   G 9    90    90    90    90    90    90    90     0     0PRN / # OF OBS
           0     0    90    90    90    90     0     0     0PRN / # OF OBS
           0     0     0     0     0                        PRN / # OF OBS
   G11    90    90    90    90    90    90    90     0     0PRN / # OF OBS
           0     0    90    90    90    90     0     0     0PRN / # OF OBS
           0     0     0     0     0                        PRN / # OF OBS
   G12    89    89    89    89    89    89    89     0     0PRN / # OF OBS
           0     0    90    90    90    90    90    90    90PRN / # OF OBS
          90     0     0     0     0                        PRN / # OF OBS
   G13    90    90    90    90    90    90    90     0     0PRN / # OF OBS
           0     0    90    90    90    90     0     0     0PRN / # OF OBS
           0     0     0     0     0                        PRN / # OF OBS
   G14    90    90    90    90    90    90    90     0     0PRN / # OF OBS
           0     0    90    90    90    90     0     0     0PRN / # OF OBS
           0     0     0     0     0                        PRN / # OF OBS
   G17    90    90    90    90    90    90    90     0     0PRN / # OF OBS
           0     0    90    90    90    90    90    90    90PRN / # OF OBS
          90     0     0     0     0                        PRN / # OF OBS
   G20    90    90    90    90    90    90    90     0     0PRN / # OF OBS
           0     0    90    90    90    90     0     0     0PRN / # OF OBS
           0     0     0     0     0                        PRN / # OF OBS
   G23    90    90    90    90    90    90    90     0     0PRN / # OF OBS
           0     0    90    90    90    90     0     0     0PRN / # OF OBS
           0     0     0     0     0                        PRN / # OF OBS
   G25    90    90    90    90    90    90    90    90    90PRN / # OF OBS
          90    90    90    90    90    90    90    90    90PRN / # OF OBS
          90     0     0     0     0                        PRN / # OF OBS
   G31    90    90    90    90    90    90    90     0     0PRN / # OF OBS
           0     0    90    90    90    90    90    90    90PRN / # OF OBS
          90     0     0     0     0                        PRN / # OF OBS
   G32    90    90    90    90    90    90    90     0     0PRN / # OF OBS
           0     0    90    90    90    90     0     0     0PRN / # OF OBS
           0     0     0     0     0                        PRN / # OF OBS
   R 1    90    90    90    90    90    90    90     0     0PRN / # OF OBS
           0     0    90    90    90    90     0     0     0PRN / # OF OBS
           0    90    90    90    90                        PRN / # OF OBS
   R 2    90    90    90    90    90    90    90     0     0PRN / # OF OBS
           0     0    90    90    90    90     0     0     0PRN / # OF OBS
           0    90    90    90    90                        PRN / # OF OBS
   R 3    90    90    90    90    90    90    90     0     0PRN / # OF OBS
           0     0    90    90    90    90     0     0     0PRN / # OF OBS
           0    90    90    90    90                        PRN / # OF OBS
   R11    90    90    90    90    90    90    90     0     0PRN / # OF OBS
           0     0    90    90    90    90     0     0     0PRN / # OF OBS
           0    90    90    90    90                        PRN / # OF OBS
   R12    90    90    90    90    90    90    90     0     0PRN / # OF OBS
           0     0    90    90    90    90     0     0     0PRN / # OF OBS
           0    90    90    90    90                        PRN / # OF OBS
   R17    90    90    90    90    90    90    90     0     0PRN / # OF OBS
           0     0    90    90    90    90     0     0     0PRN / # OF OBS
           0    90    90    90    90                        PRN / # OF OBS
   R18    90    90    90    90    90    90    90     0     0PRN / # OF OBS
           0     0    90    90    90    90     0     0     0PRN / # OF OBS
           0    90    90    90    90                        PRN / # OF OBS
   R19    90    90    90    90    90    90    90     0     0PRN / # OF OBS
           0     0    90    90    90    90     0     0     0PRN / # OF OBS
           0    90    90    90    90                        PRN / # OF OBS
                                                            END OF HEADER
 14  8 29 20  2 22.0000000  0 22G23G11R12G25R19R17G13R 2R18G 6G 9G14-0.000193463
                                G12G20G 4G32G17R11G 1G31R 3R 1
  22207324.105   116700342.172 6        38.500    22207323.965    90935348.784 6
      2073.708          38.500
                  22207324.645   116700314.904 8      2661.172          49.250


  24273366.277   127557471.124 3        21.250    24273370.037    99395443.939 3
     -3043.883          21.250
                  24273368.787   127557461.837 6     -3906.284          41.500


  21090111.731   112659643.795 7        43.750    21090122.081    87624177.274 7
      2343.484          43.750
                  21090111.751   112659643.541 7      3013.123          45.000
                                                                  21090121.181
  87624159.017 7      2343.495          45.500
  24235918.655   127360625.844 3        22.000    24235919.885    99242045.576 3
       -41.704          22.000    24235925.865    95106960.942 6       -39.898
        36.750    24235919.175   127360642.562 6       -53.500          37.500
  24235924.255    99242048.340 6       -41.636          40.500

  22591063.022   120846973.892 7        44.750    22591069.402    93992094.716 6
      2002.065          41.250
                  22591063.122   120846989.627 7      2574.036          45.750
                                                                  22591069.092
  93992099.472 7      2002.057          42.000
  23094279.320   123582163.443 6        41.750    23094288.740    96119457.577 6
     -3481.852          39.250
                  23094279.000   123582172.179 7     -4476.688          42.000
                                                                  23094288.610
  96119476.326 6     -3481.836          40.250
  24303368.632   127715086.828 3        21.750    24303369.042    99518252.572 3
      2774.898          21.750
                  24303368.122   127715303.595 6      3560.688          40.750


  19288202.058   102925590.343 9        54.000    19288208.928    80053264.739 8
      -635.074          51.250
                  19288202.578   102926013.096 9      -816.525          55.000
                                                                  19288209.268
  80053264.496 8      -635.075          52.250
  21127923.582   112782321.486 8        48.250    21127932.152    87719589.857 7
     -1412.586          45.250
                  21127923.642   112782211.222 8     -1816.205          48.500
                                                                  21127932.532
  87719595.603 7     -1412.587          46.500
  24519096.621   128848734.141 4        27.000    24519102.811   100401612.399 4
      2555.207          27.000    24519102.011    96218204.899 6      2448.720
        37.500    24519097.531   128848729.871 7      3279.137          43.000
  24519101.121   100401615.197 7      2555.204          43.000

  20408296.923   107246425.851 8        48.500    20408299.273    83568664.374 8
       551.262          48.500
                  20408297.293   107246440.600 9       707.448          54.250


  25047786.306   131627124.264 2        16.250    25047789.976   102566614.105 2
     -2777.932          16.250
                  25047788.396   131627129.035 6     -3565.007          37.250


  24967850.690   131206929.156 1        10.000    24967852.200   102239164.392 1
     -1411.260          10.000
                  24967846.980   131206929.917 5     -1811.133          33.750
  24967853.700   102239170.153 5     -1411.063          33.500

  20157530.433   105928643.842 7        45.500    20157531.143    82541822.802 7
       629.990          45.500
                  20157531.583   105928659.577 8       808.481          50.750


  20890709.748   109781471.707 7        43.000    20890711.088    85544013.222 7
      -485.319          43.000
                  20890710.458   109781472.444 8      -622.839          53.500


  21112471.322   110946864.574 7        43.250    21112473.092    86452120.010 7
     -1598.238          43.250
                  21112472.722   110946876.319 8     -2051.090          52.500


  23757016.721   124843991.928 4        29.500    23757018.261    97281036.525 4
     -1373.195          29.500
                  23757017.521   124843979.676 7     -1762.178          45.500
  23757017.971    97281031.283 6     -1373.125          41.000

  20872983.095   111538951.574 7        47.500    20872991.225    86752538.161 6
     -1070.828          41.000
                  20872983.475   111538972.320 8     -1376.798          48.750
                                                                  20872989.495
  86752523.901 7     -1070.838          42.750
  21734318.190   114214694.796 6        39.750    21734322.780    88998480.652 6
     -2193.697          39.750    21734322.120    85290210.208 7     -2102.317
        45.250    21734318.350   114214691.550 8     -2815.305          50.500
  21734322.300    88998473.423 8     -2193.731          49.750

  21418414.187   112554593.935 7        42.250    21418414.287    87704893.252 7
      -394.544          42.250
                  21418414.847   112554593.690 8      -506.347          52.250
  21418414.477    87704900.032 8      -394.566          49.500

  20775919.191   111215189.225 8        48.000    20775926.011    86500720.823 7
      2075.522          47.000
                  20775919.851   111215193.970 8      2668.481          48.750
                                                                  20775925.131
  86500746.579 7      2075.521          47.750
  22363355.078   119545033.240 7        44.750    22363364.448    92979490.888 6
     -2798.528          37.000
                  22363355.758   119545035.970 7     -3598.092          45.500
                                                                  22363361.828
  92979500.633 6     -2798.544          38.250
 14  8 29 20  2 23.0000000  0 22G23G11R12G25R19R17G13R 2R18G 6G 9G14-0.000193392
                                G12G20G 4G32G17R11G 1G31R 3R 1
  22206817.573   116697680.620 6        38.500    22206816.913    90933274.855 6
      2074.002          38.500
                  22206818.323   116697653.355 8      2661.625          49.250


  24274110.316   127561376.863 3        21.250    24274113.376    99398487.328 3
     -3043.345          21.250
                  24274112.656   127561367.589 6     -3905.606          41.750


  21089547.647   112656630.508 7        44.000    21089557.227    87621833.609 7
      2343.595          44.000
                  21089545.827   112656630.244 7      3013.241          45.000
                                                                  21089557.197
  87621815.359 7      2343.575          45.500
  24235929.058   127360678.945 3        22.000    24235931.838    99242086.984 3
       -41.360          22.000    24235936.148    95107000.633 6       -39.682
        37.000    24235929.998   127360695.719 6       -53.362          37.750
  24235934.358    99242089.744 6       -41.371          40.750

  22590582.091   120844399.703 7        45.000    22590588.451    93990092.568 6
      2002.102          41.250
                  22590582.111   120844415.445 7      2574.151          45.750
                                                                  22590587.921
  93990097.314 7      2002.091          42.000
  23095116.025   123586639.807 7        42.250    23095124.625    96122939.191 6
     -3481.508          39.750
                  23095116.195   123586648.555 6     -4476.240          41.750
                                                                  23095125.355
  96122957.937 6     -3481.500          40.750
  24302690.905   127711525.676 3        22.250    24302693.935    99515477.708 3
      2774.937          22.250
                  24302691.605   127711742.463 6      3561.371          40.500


  19288355.042   102926406.636 9        54.250    19288362.122    80053899.638 8
      -634.938          51.250
                  19288355.472   102926829.391 9      -816.294          55.250
                                                                  19288361.972
  80053899.392 8      -634.938          52.000
  21128263.940   112784137.585 8        48.250    21128272.110    87721002.377 7
     -1412.677          45.750
                  21128264.260   112784027.337 8     -1816.282          48.500
                                                                  21128273.300
  87721008.129 7     -1412.672          46.750
  24518472.966   128845454.656 4        27.000    24518476.856   100399056.981 4
      2555.431          27.000    24518477.726    96215755.927 6      2449.068
        37.000    24518473.066   128845450.391 7      3279.588          42.750
  24518477.406   100399059.738 7      2555.551          42.250

  20408162.236   107245718.200 8        48.750    20408164.556    83568112.955 8
       551.395          48.750
                  20408162.356   107245732.948 9       707.638          54.250


  25048465.376   131630688.674 2        15.250    25048469.326   102569391.528 2
     -2777.086          15.250
                  25048466.886   131630693.465 6     -3564.158          37.000


  24968195.364   131208739.971 1        10.000    24968196.344   102240575.476 1
     -1410.931          10.000
                  24968194.164   131208740.673 5     -1810.621          34.000
  24968198.264   102240581.191 5     -1410.866          33.250

  20157376.826   105927835.117 7        46.000    20157377.356    82541192.629 7
       630.155          46.000
                  20157377.706   105927850.856 8       808.688          51.000


  20890828.492   109782094.382 7        43.000    20890829.732    85544498.419 7
      -485.290          43.000
                  20890828.942   109782095.119 8      -622.810          53.500


  21112861.713   110948915.349 7        43.750    21112863.213    86453718.009 7
     -1598.005          43.750
                  21112862.683   110948927.088 8     -2050.769          52.750


  23757351.811   124845753.898 4        29.750    23757354.401    97282409.437 4
     -1372.910          29.750
                  23757352.251   124845741.617 7     -1762.005          45.500
  23757353.981    97282404.215 6     -1372.962          41.250

  20873240.738   111540328.274 7        47.500    20873248.588    86753608.925 6
     -1070.989          41.500
                  20873241.258   111540349.015 8     -1376.936          48.500
                                                                  20873248.718
  86753594.675 7     -1071.000          43.000
  21734854.145   114217509.813 6        39.750    21734858.305    89000674.168 6
     -2193.500          39.750    21734857.565    85292312.327 7     -2102.098
        45.750    21734854.145   114217506.562 8     -2814.969          50.750
  21734857.565    89000666.933 8     -2193.500          49.750

  21418510.550   112555100.053 7        42.250    21418510.530    87705287.634 7
      -394.494          42.250
                  21418510.550   112555099.807 8      -506.244          52.250
  21418511.660    87705294.403 8      -394.485          49.500

  20775420.806   111212520.410 8        48.000    20775427.176    86498645.077 7
      2075.832          47.000
                  20775421.686   111212525.158 8      2668.892          49.000
                                                                  20775427.356
  86498670.826 7      2075.809          47.500
  22364027.124   119548630.882 7        44.750    22364036.294    92982289.045 6
     -2798.086          37.500
                  22364027.494   119548633.623 7     -3597.504          45.500
                                                                  22364035.764
  92982298.801 6     -2798.101          39.500
 14  8 29 20  2 24.0000000  0 22G23G11R12G25R19R17G13R 2R18G 6G 9G14-0.000193321
                                G12G20G 4G32G17R11G 1G31R 3R 1
  22206311.205   116695019.397 6        38.500    22206310.115    90931201.170 6
      2073.287          38.500
                  22206312.015   116694992.125 8      2660.779          49.250


  24274854.768   127565282.731 3        21.750    24274855.428    99401530.893 3
     -3043.770          21.750
                  24274854.868   127565273.462 6     -3906.235          41.750


  21088983.468   112653617.868 7        43.750    21088993.838    87619490.439 7
      2342.701          43.500
                  21088984.268   112653617.613 7      3012.030          45.250
                                                                  21088991.568
  87619472.195 7      2342.667          45.250
  24235939.823   127360732.850 3        21.750    24235943.643    99242128.960 3
       -42.385          21.750    24235946.533    95107040.886 6       -40.705
        36.750    24235940.173   127360749.615 6       -54.463          37.750
  24235944.403    99242131.757 6       -42.448          40.250

  22590101.214   120841826.265 7        45.000    22590107.044    93988091.006 6
      2001.001          40.500
                  22590100.924   120841842.011 7      2572.752          45.750
                                                                  22590107.764
  93988095.755 6      2001.018          41.500
  23095952.618   123591116.396 6        41.750    23095960.768    96126420.979 6
     -3482.118          39.250
                  23095952.238   123591125.133 7     -4477.031          42.000
                                                                  23095961.488
  96126439.733 6     -3482.142          40.500
  24302015.105   127707964.680 3        22.250    24302014.255    99512702.889 3
      2774.453          22.250
                  24302014.445   127708181.441 6      3560.593          40.750


  19288508.110   102927223.458 9        54.000    19288515.170    80054534.944 8
      -635.775          50.750
                  19288507.710   102927646.211 9      -817.413          55.250
                                                                  19288515.560
  80054534.696 8      -635.772          51.750
  21128604.359   112785954.568 8        48.250    21128612.799    87722415.582 7
     -1413.826          45.500
                  21128603.919   112785844.321 8     -1817.813          48.500
                                                                  21128612.549
  87722421.330 7     -1413.828          46.750
  24517848.159   128842175.418 4        27.250    24517853.769   100396501.746 4
      2554.806          27.250    24517854.219    96213307.167 6      2448.392
        37.000    24517848.719   128842171.186 7      3278.715          43.250
  24517853.399   100396504.515 7      2554.812          42.500

  20408027.759   107245011.100 8        48.750    20408030.039    83567561.970 8
       550.495          48.750
                  20408027.689   107245025.845 9       706.493          54.500


  25049142.340   131634253.216 2        15.250    25049146.730   102572169.109 2
     -2777.801          15.250
                  25049145.350   131634257.969 6     -3564.964          36.500


  24968540.900   131210551.397 1        10.000    24968539.210   102241986.940 1
     -1411.870          10.000
                  24968538.410   131210552.108 5     -1811.838          34.500
  24968542.270   102241992.698 5     -1411.858          33.250

  20157222.948   105927026.962 7        46.000    20157223.498    82540562.896 7
       629.242          46.000
                  20157224.038   105927042.705 8       807.528          51.250


  20890947.060   109782717.791 7        42.750    20890948.200    85544984.192 7
      -486.336          42.750
                  20890947.360   109782718.524 8      -624.108          53.250


  21113252.183   110950966.532 7        43.250    21113253.563    86455316.342 7
     -1598.773          43.250
                  21113252.473   110950978.277 8     -2051.765          52.750


  23757687.154   124847516.403 4        29.750    23757689.704    97283782.850 4
     -1373.969          29.750
                  23757687.224   124847504.130 7     -1763.164          45.500
  23757690.894    97283777.619 6     -1373.963          40.750

  20873498.185   111541705.911 7        47.500    20873506.495    86754680.422 6
     -1072.139          40.750
                  20873498.645   111541726.650 8     -1378.440          48.250
                                                                  20873506.385
  86754666.178 7     -1072.146          42.500
  21735389.533   114220325.328 6        39.750    21735393.943    89002868.078 6
     -2194.353          39.750    21735393.383    85294414.822 7     -2102.904
        45.250    21735389.763   114220322.087 8     -2816.065          50.500
  21735393.783    89002860.845 8     -2194.344          49.750

  21418607.257   112555606.902 7        42.250    21418607.287    87705682.571 7
      -395.448          42.250
                  21418607.287   112555606.655 8      -507.537          52.250
  21418607.427    87705689.351 8      -395.480          49.500

  20774921.775   111209851.918 7        47.750    20774928.565    86496569.585 7
      2075.112          46.500
                  20774922.675   111209856.680 8      2668.005          48.750
                                                                  20774928.965
  86496595.335 7      2075.113          47.500
  22364700.885   119552228.764 7        44.500    22364709.575    92985087.395 6
     -2798.730          36.500
                  22364702.615   119552231.489 7     -3598.327          45.500
                                                                  22364709.445
  92985097.146 6     -2798.705          38.750
 14  8 29 20  2 25.0000000  0 22G23G11R12G25R19R17G13R 2R18G 6G 9G14-0.000193250
                                G12G20G 4G32G17R11G 1G31R 3R 1
  22205804.400   116692358.887 6        38.750    22205803.910    90929128.038 6
      2073.096          38.750
                  22205805.570   116692331.613 8      2660.481          49.000


  24275597.599   127569189.118 3        21.750    24275600.559    99404574.829 3
     -3043.966          21.750
                  24275598.749   127569179.853 6     -3906.292          41.750


  21088419.791   112650606.292 7        43.750    21088429.621    87617148.106 7
      2342.154          44.000
                  21088419.351   112650606.031 7      3011.302          45.000
                                                                  21088428.491
  87617129.859 7      2342.159          45.500
  24235949.201   127360787.857 3        21.750    24235953.711    99242171.844 3
       -43.004          21.750    24235957.401    95107081.948 6       -41.147
        36.750    24235950.141   127360804.606 6       -55.168          38.500
  24235953.981    99242174.622 6       -42.991          40.250

  22589619.860   120839253.965 7        44.750    22589626.090    93986090.329 6
      2000.402          41.250
                  22589620.440   120839269.712 7      2572.070          46.250
                                                                  22589627.260
  93986095.074 7      2000.413          42.250
  23096788.716   123595593.634 6        41.750    23096797.356    96129903.265 6
     -3482.292          39.500
                  23096788.566   123595602.368 7     -4477.171          42.000
                                                                  23096800.056
  96129922.018 6     -3482.347          40.500
  24301336.268   127704404.237 3        22.250    24301339.278    99509928.484 3
      2774.438          22.250
                  24301336.018   127704620.975 6      3560.449          40.750


  19288661.491   102928041.209 9        54.000    19288668.261    80055170.976 8
      -636.186          51.250
                  19288661.501   102928463.961 9      -817.936          55.000
                                                                  19288668.701
  80055170.726 8      -636.173          52.250
  21128944.782   112787772.780 8        48.250    21128953.452    87723829.753 7
     -1414.431          45.750
                  21128946.582   112787662.530 8     -1818.561          48.500
                                                                  21128953.732
  87723835.504 7     -1414.430          47.250
  24517225.675   128838896.882 4        27.500    24517231.055   100393947.049 4
      2554.591          27.500    24517229.685    96210858.906 6      2448.225
        37.500    24517225.315   128838892.627 7      3278.549          42.750
  24517229.925   100393949.798 7      2554.694          43.000

  20407893.298   107244304.932 8        48.750    20407895.818    83567011.709 8
       550.109          48.750
                  20407893.328   107244319.679 9       705.969          54.250


  25049820.418   131637818.157 2        15.250    25049826.148   102574946.984 2
     -2778.062          15.250
                  25049825.378   131637822.923 6     -3565.050          36.750


  24968884.283   131212363.853 1        11.500    24968885.583   102243399.227 1
     -1412.289          11.500
                  24968883.513   131212364.602 5     -1812.437          34.250
  24968887.943   102243404.991 5     -1412.397          33.750

  20157069.400   105926219.744 7        45.750    20157069.760    82539933.894 7
       628.863          45.750
                  20157070.790   105926235.485 8       807.029          51.500


  20891066.016   109783342.307 7        42.750    20891067.126    85545470.835 7
      -486.855          42.750
                  20891066.366   109783343.040 8      -624.789          53.500


  21113642.422   110953018.521 7        43.250    21113643.932    86456915.288 7
     -1599.056          43.250
                  21113643.232   110953030.267 8     -2052.151          53.000


  23758023.566   124849279.832 5        30.000    23758025.836    97285156.951 5
     -1374.332          30.000
                  23758023.376   124849267.565 7     -1763.623          45.500
  23758025.316    97285151.720 6     -1374.306          41.000

  20873756.311   111543084.902 7        47.750    20873764.921    86755752.973 6
     -1072.897          41.250
                  20873756.781   111543105.644 8     -1379.399          48.250
                                                                  20873763.861
  86755738.721 7     -1072.911          42.500
  21735925.557   114223141.735 6        40.000    21735930.267    89005062.679 6
     -2194.760          40.000    21735929.307    85296517.982 7     -2103.292
        45.250    21735925.687   114223138.491 8     -2816.600          50.500
  21735929.517    89005055.448 8     -2194.733          50.000

  21418703.592   112556114.867 7        42.000    21418703.772    87706078.392 7
      -396.018          42.000
                  21418703.922   112556114.614 8      -508.223          52.250
  21418704.412    87706085.170 8      -396.018          49.750

  20774423.578   111207184.209 7        47.750    20774430.298    86494494.705 7
      2074.804          46.750
                  20774423.038   111207188.963 8      2667.636          48.500
                                                                  20774430.378
  86494520.447 7      2074.818          47.750
  22365373.499   119555827.264 7        44.500    22365383.819    92987886.232 6
     -2798.849          36.750
                  22365373.169   119555830.002 7     -3598.597          45.250
                                                                  22365383.169
  92987895.972 6     -2798.893          38.750
 14  8 29 20  2 26.0000000  0 22G23G11R12G25R19R17G13R 2R18G 6G 9G14-0.000193179
                                G12G20G 4G32G17R11G 1G31R 3R 1
  22205298.795   116689698.613 6        38.750    22205297.585    90927055.103 6
      2072.863          38.750
                  22205299.415   116689671.353 8      2660.167          49.000


  24276340.712   127573095.510 3        21.750    24276343.082    99407618.761 3
     -3043.943          21.750
                  24276341.152   127573086.279 6     -3906.323          41.750


  21087856.165   112647595.344 7        44.000    21087866.095    87614806.260 7
      2341.618          44.000
                  21087855.325   112647595.080 7      3010.609          45.000
                                                                  21087864.885
  87614788.012 7      2341.616          45.500
  24235962.622   127360843.491 3        21.750    24235964.752    99242215.177 3
       -43.552          21.750    24235967.782    95107123.478 6       -41.706
        37.000    24235959.902   127360860.229 6       -55.847          38.000
  24235964.602    99242217.960 6       -43.536          40.000

  22589139.193   120836682.298 7        45.000    22589145.563    93984090.156 6
      1999.946          41.000
                  22589139.993   120836698.048 7      2571.335          45.750
                                                                  22589145.773
  93984094.897 7      1999.932          42.500
  23097624.991   123600071.015 6        41.500    23097633.841    96133385.678 6
     -3482.420          39.750
                  23097624.711   123600079.746 7     -4477.428          42.000
                                                                  23097633.751
  96133404.432 6     -3482.429          41.000
  24300659.393   127700843.860 3        21.500    24300658.073    99507154.165 3
      2774.375          21.500
                  24300657.993   127701060.606 6      3560.385          40.250


  19288814.635   102928859.443 9        54.250    19288821.555    80055807.377 8
      -636.585          51.250
                  19288813.765   102929282.196 9      -818.465          55.000
                                                                  19288822.175
  80055807.128 8      -636.582          52.250
  21129285.784   112789591.824 8        48.250    21129294.274    87725244.557 7
     -1415.089          45.750
                  21129285.974   112789481.567 8     -1819.451          48.500
                                                                  21129294.044
  87725250.310 7     -1415.112          47.250
  24516601.854   128835618.553 4        27.000    24516606.174   100391392.507 4
      2554.448          27.000    24516605.614    96208410.790 6      2448.092
        37.750    24516601.024   128835614.289 7      3278.314          43.000
  24516606.164   100391395.254 7      2554.542          43.000

  20407759.115   107243599.238 8        48.500    20407761.515    83566461.818 8
       549.701          48.500
                  20407759.495   107243613.983 9       705.489          54.250


  25050500.724   131641383.058 2        15.250    25050503.784   102577724.851 2
     -2777.905          15.250
                  25050504.944   131641387.852 6     -3564.873          37.250


  24969229.385   131214176.907 1        11.500    24969228.715   102244812.012 1
     -1413.147          11.500
                  24969228.295   131214177.537 6     -1813.458          36.250
  24969231.835   102244817.718 5     -1413.151          33.750

  20156916.038   105925413.001 7        45.750    20156916.558    82539305.263 7
       628.483          45.750
                  20156916.898   105925428.739 8       806.559          51.500


  20891184.698   109783967.471 7        43.000    20891186.278    85545957.964 7
      -487.330          43.000
                  20891185.308   109783968.206 8      -625.445          53.500


  21114033.322   110955070.837 7        43.250    21114034.642    86458514.504 7
     -1599.297          43.250
                  21114033.972   110955082.582 8     -2052.464          53.000


  23758358.681   124851043.712 4        29.250    23758360.931    97286531.416 4
     -1374.627          29.250
                  23758358.061   124851031.478 7     -1764.068          45.750
  23758360.551    97286526.186 6     -1374.614          41.000

  20874014.459   111544464.754 7        47.500    20874023.099    86756826.194 6
     -1073.570          41.500
                  20874015.109   111544485.500 8     -1380.286          48.500
                                                                  20874023.049
  86756811.938 7     -1073.557          42.250
  21736461.606   114225958.550 6        39.750    21736465.926    89007257.591 6
     -2195.030          39.750    21736465.426    85298621.443 7     -2103.615
        45.500    21736461.446   114225955.300 8     -2817.019          50.500
  21736465.686    89007250.362 8     -2195.070          49.750

  21418800.532   112556623.463 7        42.000    21418800.632    87706474.703 7
      -396.499          42.000
                  21418800.542   112556623.211 8      -508.867          52.250
  21418801.352    87706481.480 8      -396.513          49.750

  20773925.282   111204516.801 7        47.750    20773931.872    86492420.052 7
      2074.593          46.750
                  20773925.062   111204521.551 8      2667.319          48.500
                                                                  20773932.252
  86492445.808 7      2074.596          47.500
  22366047.434   119559425.909 7        44.500    22366056.564    92990685.172 6
     -2798.943          36.500
                  22366048.884   119559428.657 7     -3598.644          45.250
                                                                  22366054.424
  92990694.916 6     -2798.999          38.750
 14  8 29 20  2 27.0000000  0 22G23G11R12G25R19R17G13R 2R18G 6G 9G14-0.000193108
                                G12G20G 4G32G17R11G 1G31R 3R 1
  22204792.147   116687038.131 6        38.750    22204791.737    90924982.008 6
      2072.999          38.750
                  22204793.147   116687010.865 8      2660.398          49.000


  24277083.157   127577001.541 3        21.750    24277086.377    99410662.400 3
     -3043.556          21.750
                  24277085.147   127576992.284 7     -3906.020          42.000


  21087292.898   112644584.590 7        44.000    21087302.458    87612464.566 7
      2341.492          44.000
                  21087291.418   112644584.338 7      3010.525          45.000
                                                                  21087301.878
  87612446.323 7      2341.512          45.500
  24235972.639   127360899.244 3        20.750    24235972.599    99242258.623 3
       -43.467          20.750    24235978.279    95107165.131 6       -41.725
        36.500    24235971.369   127360916.007 6       -55.855          38.250
  24235976.679    99242261.412 6       -43.483          39.750

  22588658.917   120834110.856 7        44.750    22588664.617    93982090.146 6
      1999.776          41.000
                  22588658.967   120834126.609 7      2571.188          45.750
                                                                  22588665.717
  93982094.892 7      1999.781          42.500
  23098462.142   123604548.113 7        42.000    23098471.242    96136867.863 6
     -3482.230          39.250
                  23098462.442   123604556.838 7     -4477.203          42.250
                                                                  23098471.102
  96136886.608 6     -3482.245          41.000
  24299981.857   127697283.080 3        21.500    24299982.687    99504379.549 3
      2774.628          21.500
                  24299980.207   127697499.824 6      3560.968          40.500


  19288968.002   102929677.729 9        54.000    19288974.942    80056443.820 8
      -636.626          51.250
                  19288967.472   102930100.482 9      -818.544          55.000
                                                                  19288975.272
  80056443.570 8      -636.630          52.500
  21129626.365   112791411.213 8        48.250    21129634.935    87726659.649 7
     -1415.397          45.750
                  21129626.565   112791300.960 8     -1819.752          48.500
                                                                  21129634.685
  87726665.397 7     -1415.388          47.000
  24515977.736   128832340.014 4        26.750    24515982.006   100388837.781 4
      2554.504          26.750    24515982.686    96205962.519 6      2448.234
        37.250    24515977.726   128832335.732 7      3278.491          42.750
  24515982.876   100388840.532 7      2554.634          42.500

  20407624.815   107242893.560 8        48.750    20407627.215    83565911.943 8
       549.699          48.750
                  20407625.275   107242908.315 9       705.461          54.500


  25051179.155   131644947.542 2        15.250    25051183.195   102580502.424 2
     -2777.712          15.250
                  25051182.715   131644952.325 6     -3564.515          37.250


  24969574.467   131215989.906 1        11.500    24969573.657   102246224.686 1
     -1412.936          11.500
                  24969571.917   131215990.591 5     -1813.257          35.750
  24969579.807   102246230.443 5     -1413.030          32.500

  20156762.302   105924606.289 7        45.750    20156762.992    82538676.655 7
       628.460          45.750
                  20156763.512   105924622.027 8       806.515          51.500


  20891303.847   109784592.841 7        42.750    20891305.187    85546445.269 7
      -487.521          42.750
                  20891304.167   109784593.576 8      -625.647          53.500


  21114423.847   110957123.048 7        43.500    21114424.957    86460113.623 7
     -1599.270          43.500
                  21114424.347   110957134.793 8     -2052.374          53.250


  23758694.694   124852807.668 5        30.000    23758694.184    97287905.934 5
     -1374.737          30.000
                  23758694.284   124852795.417 7     -1764.151          45.750
  23758696.064    97287900.684 6     -1374.630          41.000

  20874273.097   111545845.015 7        47.750    20874280.917    86757899.727 6
     -1073.889          41.000
                  20874272.757   111545865.754 8     -1380.660          48.500
                                                                  20874281.357
  86757885.475 7     -1073.902          42.500
  21736997.887   114228775.318 6        40.000    21737002.337    89009452.479 6
     -2195.029          40.000    21737001.347    85300724.876 7     -2103.577
        45.500    21736997.667   114228772.076 8     -2816.948          50.500
  21737001.967    89009445.249 8     -2195.029          50.000

  21418897.218   112557132.269 7        42.250    21418897.528    87706871.173 7
      -396.735          42.250
                  21418897.228   112557132.027 8      -509.133          52.250
  21418897.798    87706877.955 8      -396.722          49.750

  20773426.652   111201849.266 7        47.750    20773433.612    86490345.305 7
      2074.617          46.750
                  20773426.132   111201854.018 8      2667.451          48.500
                                                                  20773433.052
  86490371.059 8      2074.624          48.000
  22366720.548   119563024.252 7        44.250    22366729.648    92993483.906 6
     -2798.727          36.750
                  22366720.098   119563026.992 7     -3598.407          45.000
                                                                  22366731.448
  92993493.637 6     -2798.724          39.250
 14  8 29 20  2 28.0000000  0 22G23G11R12G25R19R17G13R 2R18G 6G 9G14-0.000193037
                                G12G20G 4G32G17R11G 1G31R 3R 1
  22204286.056   116684377.888 6        38.250    22204285.286    90922909.094 6
      2072.598          38.250
                  22204287.106   116684350.619 8      2659.868          49.000


  24277827.257   127580907.565 3        21.750    24277829.927    99413706.039 3
     -3043.683          21.750
                  24277828.137   127580898.301 6     -3906.358          41.750


  21086729.047   112641574.452 7        43.750    21086738.777    87610123.349 7
      2340.761          44.000
                  21086726.837   112641574.209 7      3009.596          44.750
                                                                  21086738.377
  87610105.091 7      2340.775          45.250
  24235981.362   127360955.597 3        20.750    24235984.652    99242302.580 3
       -44.061          20.750    24235988.642    95107207.249 6       -42.451
        36.750    24235982.602   127360972.365 6       -56.756          37.750
  24235986.292    99242305.351 6       -44.247          39.750

  22588178.313   120831540.079 7        44.750    22588183.853    93980090.656 6
      1999.019          41.000
                  22588180.033   120831555.841 7      2570.223          46.000
                                                                  22588184.883
  93980095.397 7      1999.027          42.500
  23099298.730   123609025.352 7        42.000    23099307.490    96140350.162 6
     -3482.555          39.500
                  23099298.240   123609034.096 7     -4477.583          42.750
                                                                  23099307.250
  96140368.907 6     -3482.561          40.500
  24299303.964   127693722.354 3        21.500    24299302.294    99501604.969 3
      2774.248          21.500
                  24299304.594   127693939.124 6      3560.378          40.250


  19289121.419   102930496.512 9        54.000    19289128.309    80057080.655 8
      -637.260          51.250
                  19289121.559   102930919.266 9      -819.266          55.000
                                                                  19289128.479
  80057080.403 8      -637.253          52.250
  21129967.358   112793231.390 8        48.250    21129976.048    87728075.334 7
     -1416.202          45.500
                  21129967.678   112793121.145 8     -1820.836          48.750
                                                                  21129975.988
  87728081.086 7     -1416.205          47.000
  24515355.817   128829061.627 4        27.750    24515358.407   100386283.215 4
      2554.182          27.750    24515358.597    96203514.395 6      2447.878
        37.500    24515353.057   128829057.378 7      3278.032          42.750
  24515356.967   100386285.971 7      2554.271          43.000

  20407490.513   107242188.356 8        48.750    20407493.153    83565362.429 8
       549.102          48.750
                  20407491.163   107242203.104 9       704.689          54.750


  25051856.677   131648511.985 2        16.000    25051861.037   102583279.838 2
     -2777.545          16.000
                  25051860.327   131648516.773 6     -3564.564          37.250


  24969918.620   131217803.407 1        11.500    24969917.440   102247637.836 1
     -1413.545          11.500
                  24969916.720   131217804.167 5     -1814.098          35.750
  24969920.690   102247643.625 5     -1413.588          33.250

  20156608.911   105923800.052 7        45.750    20156609.341    82538048.417 7
       627.856          45.750
                  20156610.201   105923815.789 8       805.753          51.500


  20891423.154   109785218.848 7        42.500    20891424.494    85546933.066 7
      -488.242          42.500
                  20891423.634   109785219.586 8      -626.545          53.500


  21114814.402   110959175.570 7        43.250    21114815.602    86461712.994 7
     -1599.715          43.250
                  21114815.232   110959187.314 8     -2052.933          53.250


  23759029.846   124854572.074 4        29.000    23759033.366    97289280.804 4
     -1375.298          29.000
                  23759029.836   124854559.816 7     -1764.805          46.000
  23759030.466    97289275.561 6     -1375.186          40.750

  20874531.005   111547226.134 7        47.750    20874539.765    86758973.938 6
     -1074.748          41.000
                  20874531.855   111547246.865 8     -1381.791          48.250
                                                                  20874539.915
  86758959.669 7     -1074.733          42.000
  21737533.735   114231592.504 6        39.750    21737538.315    89011647.686 6
     -2195.589          39.750    21737537.475    85302828.616 7     -2104.111
        45.500    21737533.905   114231589.252 8     -2817.653          50.500
  21737537.645    89011640.458 8     -2195.584          49.750

  21418994.432   112557641.697 7        42.000    21418994.282    87707268.132 7
      -397.411          42.000
                  21418994.792   112557641.453 8      -510.011          52.250
  21418995.072    87707274.907 8      -397.408          49.750

  20772928.541   111199181.980 7        47.750    20772935.511    86488270.748 7
      2074.287          46.750
                  20772927.691   111199186.724 8      2666.977          48.250
                                                                  20772935.451
  86488296.510 7      2074.279          47.750
  22367393.645   119566622.722 7        44.250    22367402.525    92996282.707 6
     -2799.022          36.250
                  22367391.645   119566625.467 7     -3598.746          45.000
                                                                  22367404.605
  92996292.442 6     -2799.006          39.500
 14  8 29 20  2 29.0000000  0 22G23G11R12G25R19R17G13R 2R18G 6G 9G14-0.000192967
                                G12G20G 4G32G17R11G 1G31R 3R 1
  22203780.302   116681717.932 6        38.500    22203779.352    90920836.414 6
      2072.815          38.500
                  22203780.502   116681690.678 8      2660.090          49.250


  24278568.933   127584813.693 3        21.750    24278572.783    99416749.794 3
     -3043.632          21.750
                  24278570.723   127584804.402 7     -3905.900          42.000


  21086165.889   112638564.877 7        43.500    21086175.529    87607782.568 7
      2340.760          43.250
                  21086167.379   112638564.618 7      3009.540          44.750
                                                                  21086173.799
  87607764.321 7      2340.714          45.000
  24235991.572   127361012.663 3        20.750    24235993.282    99242346.971 3
       -44.124          20.750    24235999.602    95107249.835 6       -42.389
        37.250    24235993.722   127361029.408 6       -56.724          38.000
  24235996.502    99242349.802 6       -44.180          39.750

  22587697.391   120828970.021 7        44.500    22587703.751    93978091.728 6
      1998.872          40.750
                  22587697.101   120828985.767 7      2569.972          46.000
                                                                  22587704.051
  93978096.470 7      1998.865          42.500
  23100135.365   123613502.793 6        41.750    23100144.335    96143832.619 6
     -3482.293          38.500
                  23100134.025   123613511.578 7     -4477.234          42.250
                                                                  23100145.595
  96143851.356 6     -3482.259          40.500
  24298627.221   127690161.801 3        21.500    24298625.591    99498830.490 3
      2774.571          21.500
                  24298626.851   127690378.529 6      3560.883          39.750


  19289275.082   102931315.836 9        54.000    19289281.822    80057717.909 8
      -637.221          51.000
                  19289274.942   102931738.589 9      -819.295          55.000
                                                                  19289281.822
  80057717.657 8      -637.215          52.000
  21130308.535   112795052.397 8        48.250    21130317.315    87729491.677 7
     -1416.412          45.250
                  21130308.455   112794942.140 8     -1821.115          48.500
                                                                  21130316.645
  87729497.426 7     -1416.432          46.750
  24514729.598   128825783.539 4        27.250    24514734.898   100383728.855 4
      2554.389          27.250    24514735.298    96201066.466 6      2448.016
        37.250    24514730.478   128825779.270 7      3278.199          42.500
  24514734.068   100383731.611 7      2554.463          42.500

  20407356.398   107241483.664 8        48.750    20407358.928    83564813.321 8
       549.153          48.750
                  20407356.838   107241498.413 9       704.733          55.000


  25052534.958   131652076.495 2        16.000    25052539.758   102586057.351 2
     -2777.160          16.000
                  25052540.328   131652081.275 6     -3564.104          38.000


  24970263.024   131219617.504 1        11.500    24970266.184   102249051.475 1
     -1413.702          11.500
                  24970262.414   131219618.310 5     -1814.002          35.750
  24970266.044   102249057.218 5     -1413.576          33.750

  20156455.564   105922994.331 7        45.750    20156456.034    82537420.588 7
       627.882          45.750
                  20156456.534   105923010.073 8       805.755          51.750


  20891542.267   109785845.546 7        43.000    20891543.577    85547421.404 7
      -488.358          43.000
                  20891542.907   109785846.282 8      -626.761          53.250


  21115204.873   110961228.466 7        43.500    21115206.423    86463312.652 7
     -1599.582          43.500
                  21115205.633   110961240.210 8     -2052.833          53.250


  23759366.541   124856337.017 5        30.000    23759367.911    97290656.058 5
     -1375.210          30.000
                  23759366.641   124856324.764 7     -1764.881          46.000
  23759367.991    97290650.836 6     -1375.215          40.750

  20874789.782   111548608.159 7        47.500    20874797.832    86760048.839 6
     -1074.972          40.750
                  20874788.912   111548628.892 8     -1382.083          48.250
                                                                  20874798.422
  86760034.577 7     -1074.946          42.250
  21738069.955   114234410.146 6        39.750    21738074.015    89013843.246 6
     -2195.481          39.750    21738073.375    85304932.702 7     -2104.026
        45.250    21738070.015   114234406.895 8     -2817.575          50.250
  21738074.335    89013836.025 8     -2195.499          49.750

  21419091.348   112558151.823 7        42.250    21419091.618    87707665.634 7
      -397.547          42.250
                  21419091.158   112558151.572 8      -510.181          52.250
  21419092.128    87707672.410 8      -397.541          49.750

  20772430.540   111196515.015 7        47.500    20772437.130    86486196.452 7
      2074.466          46.500
                  20772430.210   111196519.766 8      2667.110          48.500
                                                                  20772437.220
  86486222.211 7      2074.455          47.750
  22368067.174   119570221.387 7        44.250    22368075.384    92999081.672 6
     -2798.735          36.250
                  22368066.724   119570224.143 7     -3598.417          45.250
                                                                  22368072.294
  92999091.390 6     -2798.702          38.500
 14  8 29 20  2 30.0000000  0 22G23G11R12G25R19R17G13R 2R18G 6G 9G14-0.000192896
                                G12G20G 4G32G17R11G 1G31R 3R 1
  22203273.821   116679058.119 6        38.500    22203273.131    90918763.823 6
      2072.617          38.500
                  22203274.581   116679030.856 8      2659.816          49.000


  24279313.491   127588719.724 3        21.500    24279316.571    99419793.440 3
     -3043.551          21.500
                  24279313.831   127588710.453 7     -3905.898          42.000


  21085601.958   112635555.766 7        43.500    21085612.108    87605442.146 7
      2340.317          43.750
                  21085602.798   112635555.496 7      3008.969          44.250
                                                                  21085612.598
  87605423.896 7      2340.306          45.000
  24236003.050   127361070.249 3        21.000    24236008.360    99242391.910 3
       -44.813          21.000    24236010.500    95107292.849 6       -42.909
        37.250    24236006.580   127361087.046 6       -57.518          36.250
  24236008.530    99242394.696 6       -44.764          39.750

  22587216.831   120826400.509 7        44.500    22587222.901    93976093.225 6
      1998.343          41.000
                  22587218.221   120826416.264 7      2569.269          46.000
                                                                  22587222.851
  93976097.972 7      1998.348          42.750
  23100972.197   123617980.276 6        41.750    23100980.477    96147315.103 6
     -3482.437          39.500
                  23100970.317   123617989.029 7     -4477.379          42.000
                                                                  23100980.197
  96147333.847 6     -3482.435          40.750
  24297948.915   127686601.184 3        21.500    24297949.565    99496055.975 3
      2774.687          21.500
                  24297948.855   127686817.911 6      3560.751          40.000


  19289428.550   102932135.496 9        54.000    19289435.740    80058355.421 8
      -637.547          51.250
                  19289428.340   102932558.253 9      -819.711          54.750
                                                                  19289435.620
  80058355.172 8      -637.545          52.500
  21130649.848   112796874.099 8        48.250    21130658.798    87730908.551 7
     -1417.026          45.750
                  21130648.848   112796763.854 8     -1821.953          48.500
                                                                  21130657.458
  87730914.304 7     -1417.027          47.000
  24514107.001   128822505.535 4        27.500    24514111.051   100381174.561 4
      2554.278          27.500    24514111.681    96198618.615 6      2447.839
        37.500    24514106.631   128822501.271 7      3277.964          42.500
  24514110.601   100381177.328 7      2554.275          43.000

  20407222.312   107240779.351 8        48.750    20407224.812    83564264.506 8
       548.727          48.750
                  20407222.732   107240794.099 9       704.204          54.750


  25053212.503   131655640.833 2        16.000    25053216.773   102588834.796 2
     -2777.156          16.000
                  25053217.643   131655645.613 6     -3564.030          38.000


  24970610.034   131221432.045 1        11.500    24970610.594   102250465.325 1
     -1413.850          11.500
                  24970608.644   131221432.811 6     -1814.660          36.250
  24970610.074   102250471.115 5     -1413.962          32.500

  20156302.382   105922188.989 7        45.750    20156302.822    82536793.051 7
       627.452          45.750
                  20156303.022   105922204.724 8       805.219          52.000


  20891661.590   109786472.798 7        43.250    20891662.840    85547910.168 7
      -488.917          43.250
                  20891662.170   109786473.537 8      -627.443          53.500


  21115595.414   110963281.576 7        43.000    21115597.244    86464912.480 7
     -1599.876          43.000
                  21115596.044   110963293.325 8     -2053.165          53.000


  23759702.416   124858102.311 5        30.250    23759704.366    97292031.618 5
     -1375.512          30.250
                  23759701.896   124858090.066 7     -1765.365          45.750
  23759702.986    97292026.400 6     -1375.571          41.000

