     2.12           OBSERVATION DATA    M (MIXED)           RINEX VERSION / TYPE
GREIFZ v.2.0.99     JAVAD GNSS          20150612 223738 UTC PGM / RUN BY / DATE 
filename                                                    MARKER NAME         
                                                            MARKER NUMBER       
-Unknown-           -Unknown-                               OBSERVER / AGENCY   
00L8XRYFXCC213FJTMVBTR_G3T ALPHA        3.4.14 Jan,29,2014  REC # / TYPE / VERS 
-Unknown-           -Unknown-                               ANT # / TYPE        
        0.0000        0.0000        0.0000                  APPROX POSITION XYZ 
        0.0000        0.0000        0.0000                  ANTENNA: DELTA H/E/N
     1     1                                                WAVELENGTH FACT L1/2
     0                                                      # / TYPES OF OBSERV 
     1.000                                                  INTERVAL            
  2014     8    29    20     2   22.0000000     GPS         TIME OF FIRST OBS   
  2014     8    29    20     3   51.0000000     GPS         TIME OF LAST OBS    
                                                            END OF HEADER       
 14  8 29 20  2 22.0000000  0  0
 14  8 29 20  2 23.0000000  0  0
 14  8 29 20  2 24.0000000  0  0
 14  8 29 20  2 25.0000000  0  0
 14  8 29 20  2 26.0000000  0  0
 14  8 29 20  2 27.0000000  0  0
 14  8 29 20  2 28.0000000  0  0
 14  8 29 20  2 29.0000000  0  0
 14  8 29 20  2 30.0000000  0  0
 14  8 29 20  2 31.0000000  0  0
 14  8 29 20  2 32.0000000  0  0
 14  8 29 20  2 33.0000000  0  0
 14  8 29 20  2 34.0000000  0  0
 14  8 29 20  2 35.0000000  0  0
 14  8 29 20  2 36.0000000  0  0
 14  8 29 20  2 37.0000000  0  0
 14  8 29 20  2 38.0000000  0  0
 14  8 29 20  2 39.0000000  0  0
 14  8 29 20  2 40.0000000  0  0
 14  8 29 20  2 41.0000000  0  0
 14  8 29 20  2 42.0000000  0  0
 14  8 29 20  2 43.0000000  0  0
 14  8 29 20  2 44.0000000  0  0
 14  8 29 20  2 45.0000000  0  0
 14  8 29 20  2 46.0000000  0  0
 14  8 29 20  2 47.0000000  0  0
 14  8 29 20  2 48.0000000  0  0
 14  8 29 20  2 49.0000000  0  0
 14  8 29 20  2 50.0000000  0  0
 14  8 29 20  2 51.0000000  0  0
 14  8 29 20  2 52.0000000  0  0
 14  8 29 20  2 53.0000000  0  0
 14  8 29 20  2 54.0000000  0  0
 14  8 29 20  2 55.0000000  0  0
 14  8 29 20  2 56.0000000  0  0
 14  8 29 20  2 57.0000000  0  0
 14  8 29 20  2 58.0000000  0  0
 14  8 29 20  2 59.0000000  0  0
 14  8 29 20  3  0.0000000  0  0
 14  8 29 20  3  1.0000000  0  0
 14  8 29 20  3  2.0000000  0  0
 14  8 29 20  3  3.0000000  0  0
 14  8 29 20  3  4.0000000  0  0
 14  8 29 20  3  5.0000000  0  0
 14  8 29 20  3  6.0000000  0  0
 14  8 29 20  3  7.0000000  0  0
 14  8 29 20  3  8.0000000  0  0
 14  8 29 20  3  9.0000000  0  0
 14  8 29 20  3 10.0000000  0  0
 14  8 29 20  3 11.0000000  0  0
 14  8 29 20  3 12.0000000  0  0
 14  8 29 20  3 13.0000000  0  0
 14  8 29 20  3 14.0000000  0  0
 14  8 29 20  3 15.0000000  0  0
 14  8 29 20  3 16.0000000  0  0
 14  8 29 20  3 17.0000000  0  0
 14  8 29 20  3 18.0000000  0  0
 14  8 29 20  3 19.0000000  0  0
 14  8 29 20  3 20.0000000  0  0
 14  8 29 20  3 21.0000000  0  0
 14  8 29 20  3 22.0000000  0  0
 14  8 29 20  3 23.0000000  0  0
 14  8 29 20  3 24.0000000  0  0
 14  8 29 20  3 25.0000000  0  0
 14  8 29 20  3 26.0000000  0  0
 14  8 29 20  3 27.0000000  0  0
 14  8 29 20  3 28.0000000  0  0
 14  8 29 20  3 29.0000000  0  0
 14  8 29 20  3 30.0000000  0  0
 14  8 29 20  3 31.0000000  0  0
 14  8 29 20  3 32.0000000  0  0
 14  8 29 20  3 33.0000000  0  0
 14  8 29 20  3 34.0000000  0  0
 14  8 29 20  3 35.0000000  0  0
 14  8 29 20  3 36.0000000  0  0
 14  8 29 20  3 37.0000000  0  0
 14  8 29 20  3 38.0000000  0  0
 14  8 29 20  3 39.0000000  0  0
 14  8 29 20  3 40.0000000  0  0
 14  8 29 20  3 41.0000000  0  0
 14  8 29 20  3 42.0000000  0  0
 14  8 29 20  3 43.0000000  0  0
 14  8 29 20  3 44.0000000  0  0
 14  8 29 20  3 45.0000000  0  0
 14  8 29 20  3 46.0000000  0  0
 14  8 29 20  3 47.0000000  0  0
 14  8 29 20  3 48.0000000  0  0
 14  8 29 20  3 49.0000000  0  0
 14  8 29 20  3 50.0000000  0  0
 14  8 29 20  3 51.0000000  0  0
